{
"type": "FeatureCollection",
"crs": { "type": "name", "properties": { "name": "urn:ogc:def:crs:OGC:1.3:CRS84" } },
                                                                                
"features": [
{ "type": "Feature", "properties": { "color": "purple", "icon": "plus", "name": "Catedral Ntra. Señora de la Candelaria" }, "geometry": { "type": "Point", "coordinates": [ -67.138477, 18.201101 ] } },
{ "type": "Feature", "properties": { "color": null, "icon": "institution", "name": "Centro Cultural Baudilio Vega" }, "geometry": { "type": "Point", "coordinates": [ -67.139915, 18.201267 ] } },
{ "type": "Feature", "properties": { "color": null, "icon": "institution", "name": "Casa Alcaldía" }, "geometry": { "type": "Point", "coordinates": [ -67.139708, 18.201131 ] } },
{ "type": "Feature", "properties": { "color": null, "icon": "institution", "name": "Teatro Yagüez" }, "geometry": { "type": "Point", "coordinates": [ -67.140264, 18.201209 ] } },
{ "type": "Feature", "properties": { "color": null, "icon": "graduation-cap", "name": "Escuela de Derecho Eugenio María de Hostos" }, "geometry": { "type": "Point", "coordinates": [ -67.139291, 18.199772 ] } },
{ "type": "Feature", "properties": { "color": null, "icon": "institution", "name": "Plaza del Mercado" }, "geometry": { "type": "Point", "coordinates": [ -67.142994, 18.199257 ] } },
{ "type": "Feature", "properties": { "color": null, "icon": "institution", "name": "Centro Gubernamental" }, "geometry": { "type": "Point", "coordinates": [ -67.144849, 18.196532 ] } },
{ "type": "Feature", "properties": { "color": "green", "icon": "tree", "name": "Plaza Almirante Cristóbal Colón" }, "geometry": { "type": "Point", "coordinates": [ -67.139126, 18.201135 ] } },
{ "type": "Feature", "properties": { "color": "red", "icon": "paint-brush", "name": "Escuela de Bellas Artes" }, "geometry": { "type": "Point", "coordinates": [ -67.13989, 18.1978 ] } },
{ "type": "Feature", "properties": { "color": "orange", "icon": "car", "name": "Estacionamiento Municipal Luis Muñoz Rivera" }, "geometry": { "type": "Point", "coordinates": [ -67.140018, 18.199691 ] } }
]
}
