{
"type": "FeatureCollection",
"crs": { "type": "name", "properties": { "name": "urn:ogc:def:crs:OGC:1.3:CRS84" } },
                                                                                
"features": [
  { "type": "Feature", "properties": { "color": "purple", "icon": "plus", "name": "Catedral Ntra. Señora de la Candelaria" }, "geometry": { "type": "Point", "coordinates": [ -67.138477, 18.201101 ] } },
  { "type": "Feature", "properties": { "color": null, "icon": "institution", "name": "Centro Cultural Baudilio Vega" }, "geometry": { "type": "Point", "coordinates": [ -67.139915, 18.201267 ] } },
  { "type": "Feature", "properties": { "color": null, "icon": "institution", "name": "Casa Alcaldía" }, "geometry": { "type": "Point", "coordinates": [ -67.139708, 18.201131 ] } },
  { "type": "Feature", "properties": { "color": null, "icon": "institution", "name": "Teatro Yagüez" }, "geometry": { "type": "Point", "coordinates": [ -67.140264, 18.201209 ] } },
  { "type": "Feature", "properties": { "color": null, "icon": "graduation-cap", "name": "Escuela de Derecho Eugenio María de Hostos" }, "geometry": { "type": "Point", "coordinates": [ -67.139291, 18.199772 ] } },
  { "type": "Feature", "properties": { "color": "orange", "icon": "car", "name": "Estacionamiento Municipal Luis Muñoz Rivera" }, "geometry": { "type": "Point", "coordinates": [ -67.140014, 18.199707 ] } },
  { "type": "Feature", "properties": { "color": "red", "plus-square": "car", "name": "Ciudad del Retiro" }, "geometry": { "type": "Point", "coordinates": [ -67.1398015, 18.2026719 ] } },
  { "type": "Feature", "properties": { "color": "red", "icon": "paint-brush", "name": "Escuela de Bellas Artes" }, "geometry": { "type": "Point", "coordinates": [ -67.13989, 18.1978 ] } },
  { "type": "Feature", "properties": { "color": "green", "icon": "tree", "name": "Plaza Almirante Cristóbal Colón" }, "geometry": { "type": "Point", "coordinates": [ -67.139126, 18.201135 ] } },
  { "type": "Feature", "properties": { "color": null, "icon": "institution", "name": "Centro Gubernamental" }, "geometry": { "type": "Point", "coordinates": [ -67.144849, 18.196532 ] } },
  { "type": "Feature", "properties": { "color": "blue", "icon": "star", "name": "Comandancia Policía Municipal" }, "geometry": { "type": "Point", "coordinates": [ -67.146252, 18.174195] } },
  { "type": "Feature", "properties": { "color": "blue", "icon": "graduation-cap", "name": "Escuela Superior Eugenio María de Hostos" }, "geometry": { "type": "Point", "coordinates": [ -67.144576, 18.198272] } },
  { "type": "Feature", "properties": { "color": "blue", "icon": "institution", "name": "Bomberos de Puerto Rico" }, "geometry": { "type": "Point", "coordinates": [ -67.145228, 18.198092] } },
  { "type": "Feature", "properties": { "color": null, "icon": "institution", "name": "Plaza del Mercado" }, "geometry": { "type": "Point", "coordinates": [ -67.142994, 18.199257 ] } },
  { "type": "Feature", "properties": { "color": null, "icon": "institution", "name": "Correo General" }, "geometry": { "type": "Point", "coordinates": [ -67.143971, 18.201553] } },
  { "type": "Feature", "properties": { "color": "green", "icon": "tree", "name": "Plaza Luis Muñoz Marín" }, "geometry": { "type": "Point", "coordinates": [ -67.137826, 18.199825] } },
  { "type": "Feature", "properties": { "color": "green", "icon": "tree", "name": "Parque Suau" }, "geometry": { "type": "Point", "coordinates": [ -67.145972, 18.204288] } },
  { "type": "Feature", "properties": { "color": "green", "icon": "tree", "name": "Plaza José de Diego" }, "geometry": { "type": "Point", "coordinates": [ -67.1401828, 18.202118] } },
  { "type": "Feature", "properties": { "color": "green", "icon": "tree", "name": "Palacio de Recreación y Deportes" }, "geometry": { "type": "Point", "coordinates": [ -67.135842, 18.205953] } },
  { "type": "Feature", "properties": { "color": "blue", "icon": "graduation-cap", "name": "Recinto Universitario de Mayagüez – UPR" }, "geometry": { "type": "Point", "coordinates": [ -67.140541, 18.209459] } },
  { "type": "Feature", "properties": { "color": "green", "icon": "tree", "name": "Estación Experimental (RUM)" }, "geometry": { "type": "Point", "coordinates": [ -67.137989, 18.208618] } },
  { "type": "Feature", "properties": { "color": "green", "icon": "tree", "name": "Parque de Los Próceres" }, "geometry": { "type": "Point", "coordinates": [ -67.137687, 18.205954] } },
  { "type": "Feature", "properties": { "color": "red", "icon": "plus-square", "name": "Hospital Perea" }, "geometry": { "type": "Point", "coordinates": [ -67.140261, 18.202621] } },
  { "type": "Feature", "properties": { "color": "red", "icon": "plus-square", "name": "Hospital San Antonio" }, "geometry": { "type": "Point", "coordinates": [ -67.141224, 18.203084] } }
]
}
